city_name,lat,lon
Schorndorf,48.8,9.53333333
Bukhara,39.76666667,64.42305556
Kathmandu, 27.71,85.3199999
Shenzhen,22.5431,114.0579
Lahore,31.5497,74.3436
Southborough,42.305555555556,-71.525
Jinan, 36.666, 117.07
Beijing,39.9062,116.3913
Chengdu,30.39,104.03
Novi Sad,45.25416667,19.8425
